,City,Country,Lon,Lat,humidity,temp,clouds,wind speed(mph)
0,Putina,PE,-69.87,-14.91,17,57.2,40,4.7
1,Port Alfred,ZA,26.89,-33.59,95,65.19,44,13.15
2,Dunedin,NZ,170.5,-45.87,75,37.83,12,21.88
3,Yellowknife,CA,-114.38,62.45,87,42.8,75,8.05
4,Souillac,MU,57.52,-20.52,69,75.2,75,13.87
5,Cruzeiro do Sul,BR,-72.67,-7.63,44,95,75,8.05
6,Leningradskiy,RU,178.42,69.38,98,39.18,56,12.48
7,Dikson,RU,80.55,73.51,94,40.26,92,31.05
8,Punta Arenas,CL,-70.91,-53.16,93,44.6,20,6.93
9,Ushuaia,AR,-68.31,-54.81,51,39.2,75,11.41
10,Vao,NC,167.48,-22.67,100,68.88,12,12.26
11,Leh,IN,77.58,34.16,85,15.78,8,0.63
12,Jamestown,SH,-5.72,-15.94,100,67.62,0,14.83
13,Kapaa,US,-159.32,22.08,84,78.08,90,10.29
14,Thompson,CA,-97.86,55.74,86,39.2,75,2.24
15,Karakol,KG,78.39,42.49,100,24.78,0,2.64
16,Porto Santo,PT,-16.34,33.07,69,75.2,75,8.05
17,Komsomolskiy,RU,63.78,67.55,91,46.65,88,5.44
18,Kruisfontein,ZA,24.73,-34,95,59.79,12,12.48
19,Jabinyanah,TN,10.91,35.03,57,80.6,0,13.87
20,Cape Town,ZA,18.42,-33.93,72,59,75,21.92
21,Kazachinskoye,RU,93.28,57.69,97,45.48,68,7.34
22,Lavrentiya,RU,-170.99,65.58,100,40.89,36,10.8
23,Albany,AU,117.88,-35.02,91,49.8,56,4.99
24,Hilo,US,-155.08,19.71,90,75.02,20,4.7
25,Drayton Valley,CA,-114.98,53.22,73,52.86,24,10.25
26,Hvide Sande,DK,8.13,56.01,71,53.6,92,9.17
27,Arraial do Cabo,BR,-42.02,-22.97,58,84.2,20,12.75
28,Vredendal,ZA,18.49,-31.68,85,55.74,88,8.23
29,Marang,MY,103.21,5.21,88,78.8,75,1.12
30,Hobyo,SO,48.53,5.35,85,77.43,0,15.05
31,Kahului,US,-156.47,20.89,87,75.2,1,3.36
32,Farafenni,GM,-15.6,13.57,77,85.17,44,6.44
33,Znamenskoye,RU,73.82,57.13,86,50.16,0,4.54
34,Chuy,UY,-53.46,-33.69,87,64.74,76,17.29
35,Lincoln,NZ,172.49,-43.64,80,39.2,0,4.7
36,Kotido,UG,34.12,3.01,47,74.28,0,10.92
37,Vardo,NO,31.11,70.37,60,42.8,0,17.22
38,Matara,LK,80.54,5.95,95,79.14,20,5.99
39,Hobart,AU,147.33,-42.88,78,35.6,20,3.36
40,Riyadh,SA,46.72,24.63,13,95,0,3.36
41,Hilsa,IN,85.28,25.32,88,82.4,40,8.23
42,Broome,AU,122.23,-17.97,83,69.8,0,3.2
43,Taoudenni,ML,-3.98,22.68,14,97.41,0,2.98
44,Butaritari,KI,172.79,3.07,100,83.64,0,13.6
45,Bredasdorp,ZA,20.04,-34.53,42,68,0,23.04
46,Port Augusta,AU,137.76,-32.49,87,44.6,0,5.82
47,Tuktoyaktuk,CA,-133.03,69.44,79,28.4,90,3.36
48,Yumen,CN,97.04,40.29,51,48.81,20,8.68
49,Rikitea,PF,-134.97,-23.12,100,71.58,88,24.23
50,Eufaula,US,-85.15,31.89,54,93.02,20,8.05
51,Fare,PF,-151.02,-16.7,100,76.98,8,13.27
52,Chimbote,PE,-78.59,-9.08,80,67.08,20,6.67
53,Lagoa,PT,-8.45,37.14,65,80.6,0,9.17
54,Atuona,PF,-139.03,-9.8,100,78.78,0,10.69
55,Sitka,US,-99.65,37.17,64,72.12,20,27.36
56,Port Macquarie,AU,152.91,-31.43,93,50,75,5.82
57,Avarua,CK,-159.78,-21.21,78,75.2,40,4.7
58,Ribeira Grande,PT,-28.7,38.52,73,75.2,40,9.17
59,Alofi,NU,-169.92,-19.06,94,68,40,4.76
60,Lewisporte,CA,-55.06,49.25,42,46.4,40,11.41
61,Oranjestad,AW,-70.03,12.52,66,87.8,75,24.16
62,Roma,AU,148.79,-26.57,96,55.29,20,12.03
63,Nikolskoye,RU,30.79,59.7,49,46.4,40,15.66
64,Bluff,NZ,168.33,-46.6,100,47.19,80,33.4
65,Longyearbyen,SJ,15.64,78.22,100,32,90,17.22
66,Cabedelo,BR,-34.84,-6.97,62,84.2,75,14.99
67,Hermanus,ZA,19.24,-34.42,68,56.19,24,13.94
68,Kargalinskaya,RU,46.48,43.74,86,67.98,0,7
69,Flagstaff,US,-111.65,35.2,45,77,75,8.05
70,Vaini,TO,-175.2,-21.2,83,71.6,75,8.05
71,Busselton,AU,115.35,-33.64,100,54.66,68,6.22
72,Qaanaaq,GL,-69.36,77.48,100,14.79,0,4.76
73,Cherskiy,RU,161.3,68.75,97,23.97,20,2.42
74,Zhuanghe,CN,122.97,39.7,100,58.62,0,6.78
75,Geraldton,AU,114.6,-28.77,87,55.4,0,11.41
76,Faanui,PF,-151.75,-16.48,100,77.61,48,14.27
77,Ningxiang,CN,112.55,28.28,83,71.6,0,4.47
78,Tasiilaq,GL,-37.64,65.61,74,37.4,20,8.05
79,Lamar,US,-102.62,38.09,49,59,1,17.22
80,Okahandja,NA,16.91,-21.98,14,84.2,0,9.17
81,Maraba,BR,-49.1,-5.35,47,96.8,40,5.82
82,Challapata,BO,-66.78,-18.9,58,50.52,0,7.45
83,Shingu,JP,135.99,33.72,100,73.02,76,12.03
84,Baoding,CN,115.49,38.86,91,46.02,12,2.42
85,Nizhniy Odes,RU,54.86,63.64,99,46.92,92,2.98
86,Puerto Ayora,EC,-90.35,-0.74,61,78.8,40,17.22
87,Cidreira,BR,-50.22,-30.17,89,68.34,80,20.31
88,Saint-Philippe,RE,55.77,-21.36,69,73.4,90,5.82
89,Jalu,LY,21.55,29.03,35,85.62,0,8.68
90,East London,ZA,27.91,-33.02,77,62.6,0,16.11
91,Srednekolymsk,RU,153.71,67.46,94,26.22,36,2.42
92,Mar del Plata,AR,-67.52,-46.43,88,44.58,92,8.12
93,Lazo,RU,133.91,43.38,87,35.31,0,2.3
94,Lieksa,FI,30.02,63.32,79,38.64,36,5.32
95,Energetik,RU,58.8,51.74,72,54.21,0,7.23
96,Georgetown,SH,-14.42,-7.93,100,75.09,92,15.05
97,Chato,TZ,31.77,-2.64,78,73.2,12,8.34
98,Manadhoo,MV,73.38,5.77,96,84.99,88,12.15
99,Pradopolis,BR,-48.07,-21.36,20,98.6,20,8.05
100,Broken Hill,AU,141.45,-31.97,80,43.59,0,6.55
101,Mehran,IR,46.17,33.12,21,78.8,0,9.17
102,Saldanha,ZA,17.94,-33.01,63,60.8,92,12.75
103,Verrettes,HT,-72.47,19.05,73,87.33,0,2.75
104,Pakxan,LA,103.66,18.39,96,74.19,64,2.19
105,Kodiak,US,-94.76,39.95,78,73.94,90,13.87
106,Saint George,BM,-64.68,32.38,62,84.2,75,18.34
107,Nizhniy Kuranakh,RU,125.49,58.84,83,33.6,0,2.75
108,Bambous Virieux,MU,57.76,-20.34,69,75.2,75,13.87
109,Horsham,AU,142.2,-36.71,86,40.98,0,7.23
110,Halmaj,HU,21,48.25,58,48.2,0,4.7
111,Sinop,TR,35.15,42.03,100,62.85,100,16.73
112,Tayoltita,MX,-105.93,24.11,77,77.52,68,2.19
113,Bethel,US,-161.76,60.79,100,37.94,40,9.17
114,Comodoro Rivadavia,AR,-67.48,-45.87,46,53.6,75,17.22
115,Torbay,CA,-52.73,47.66,65,44.6,75,17.22
116,Victoria,SC,55.45,-4.62,94,77,90,12.75
117,Narsaq,GL,-46.05,60.91,35,41,20,11.41
118,Clyde River,CA,-68.59,70.47,100,32,90,13.87
119,Ibatiba,BR,-41.51,-20.23,38,83.55,24,2.75
120,Sampit,ID,112.95,-2.54,82,76.44,8,7.23
121,Tiksi,RU,128.87,71.64,98,33.78,88,14.72
122,Ponta do Sol,CV,-25.09,17.2,100,77.79,0,12.71
123,Bandarbeyla,SO,50.81,9.49,96,77.7,0,22.21
124,Norman Wells,CA,-126.83,65.28,98,33.8,90,3.53
125,San Policarpo,PH,125.51,12.18,93,81.21,44,15.84
126,Buraydah,SA,43.97,26.33,19,100.4,40,5.82
127,Batemans Bay,AU,150.18,-35.71,100,48.36,92,4.65
128,Cabo San Lucas,MX,-109.91,22.89,70,86,20,2.24
129,Mayor Pablo Lagerenza,PY,-60.77,-19.93,76,89.76,20,4.88
130,Pangody,RU,74.49,65.85,93,53.94,44,8.79
131,Gizo,SB,156.84,-8.1,100,77.25,92,40.22
132,Offa,NG,4.32,7.97,100,70.68,92,3.42
133,Kutum,SD,24.66,14.2,17,87.96,92,9.24
134,Vung Tau,VN,107.08,10.35,88,78.8,40,5.82
135,Mangrol,IN,76.51,25.33,86,72.12,0,3.76
136,San Rafael,AR,-68.33,-34.61,21,73.74,0,9.13
137,Praia da Vitoria,PT,-27.07,38.73,83,75.2,40,11.59
138,Provideniya,RU,-173.23,64.42,100,41.79,8,6.22
139,Westport,NZ,171.6,-41.75,100,44.67,92,7.78
140,Kokorevka,RU,34.27,52.59,75,44.6,40,8.95
141,Camocim,BR,-40.84,-2.9,59,89.4,0,16.06
142,Calama,CL,-68.93,-22.46,6,73.4,0,14.99
143,Roald,NO,6.12,62.58,66,53.6,75,25.28
144,Mbandaka,CD,18.26,0.05,88,75.99,8,0.74
145,Severo-Kurilsk,RU,156.12,50.68,97,49.44,56,9.46
146,Ucluelet,CA,-125.55,48.94,93,57.2,40,2.08
147,Noumea,NC,166.46,-22.28,87,57.2,0,8.79
148,Sao Filipe,CV,-24.5,14.9,91,80.04,0,11.59
149,Ayagoz,KZ,80.43,47.96,87,42.96,8,2.98
150,Ulaangom,MN,92.07,49.98,73,32.25,0,6.44
151,Olinda,BR,-43.41,-22.82,62,84.2,75,14.99
152,Mahibadhoo,MV,72.97,3.78,100,83.82,92,17.29
153,North Battleford,CA,-108.3,52.78,75,44.6,1,9.17
154,Erzin,RU,95.16,50.26,96,38.28,92,7.45
155,Kashmor,PK,69.58,28.43,50,80.04,0,5.66
156,Upernavik,GL,-56.15,72.79,100,31.17,76,5.99
157,Bilibino,RU,166.44,68.06,94,28.38,92,2.42
158,Pecos,US,-103.49,31.42,44,82.04,1,3.42
159,Krutinka,RU,71.51,56.01,78,54.66,0,10.02
160,Nanortalik,GL,-45.24,60.14,93,37.92,0,21.77
161,Padang,ID,100.36,-0.92,100,79.68,56,4.65
162,Floriano,BR,-43.02,-6.77,30,98.58,8,5.32
163,The Valley,AI,-63.06,18.22,100,82.29,68,14.72
164,Caravelas,BR,-39.27,-17.73,100,77.07,32,12.48
165,Chenghai,CN,116.77,23.46,83,78.8,40,19.64
166,Barrow,US,-90.4,39.51,74,80.06,90,6.93
167,Alice Springs,AU,133.88,-23.7,29,51.8,0,3.36
168,Khatanga,RU,102.47,71.98,84,29.19,36,9.24
169,Cartagena,CO,-75.64,5.03,73,78.8,20,3.36
170,Kiunga,PG,141.3,-6.12,96,71.13,32,1.74
171,Grindavik,IS,-22.43,63.84,70,46.4,75,32.21
172,Umm Bab,QA,50.81,25.21,46,87.42,0,7.11
173,Bowen,AU,148.25,-20.01,88,62.6,75,5.82
174,Yaring,TH,101.37,6.87,95,73.38,12,2.53
175,Tateyama,JP,137.31,36.66,100,56.1,92,2.08
176,Luderitz,NA,15.16,-26.65,85,55.47,8,11.81
177,Lebu,CL,-73.65,-37.62,100,52.68,12,12.26
178,Port Elizabeth,ZA,25.57,-33.92,72,62.6,20,13.87
179,Khanpur,PK,70.66,28.65,53,80.22,0,6.22
180,Stornoway,GB,-6.39,58.21,100,55.4,75,25.28
181,Rio Bueno,CL,-72.97,-40.32,62,55.4,75,5.82
182,Ocos,GT,-92.19,14.51,58,87.8,20,6.93
183,Ellensburg,US,-120.55,47,61,57.02,1,4.7
184,Coslada,ES,-3.56,40.42,25,89.6,20,2.24
185,Megion,RU,76.11,61.04,100,53.6,32,2.24
186,Fort Nelson,CA,-122.69,58.81,70,42.8,75,5.82
187,Soyo,AO,12.37,-6.13,73,78.24,0,7.34
188,Kaitangata,NZ,169.85,-46.28,70,40.89,76,24.9
189,Yar-Sale,RU,70.83,66.83,95,49.71,88,7.67
190,Anadyr,RU,177.51,64.73,87,42.8,40,15.66
191,Portland,AU,149.98,-33.35,97,42.6,8,2.19
192,Turayf,SA,38.65,31.68,18,89.6,0,13.87
193,Vila Velha,BR,-38.6,-3.71,62,86,40,19.46
194,Suntar,RU,117.65,62.16,90,37.11,0,2.64
195,Port-Gentil,GA,8.78,-0.72,83,80.6,75,14.99
196,Coquimbo,CL,-71.34,-29.95,72,59,75,5.82
197,Kachug,RU,105.89,53.96,81,36.66,76,2.08
198,Montefiascone,IT,12.04,42.54,42,62.6,0,16.28
199,Port Hardy,CA,-127.42,50.7,93,53.6,75,4.7
200,High Level,CA,-117.13,58.52,75,41,90,3.36
201,Jieshi,CN,115.83,22.82,100,77.34,12,5.99
202,Ponta Delgada,PT,-25.67,37.73,69,75.2,20,13.87
203,New Norfolk,AU,147.06,-42.78,100,33.8,20,2.24
204,Monrovia,LR,-10.8,6.33,79,84.2,75,8.05
205,Saint-Joseph,RE,55.62,-21.37,69,73.4,90,5.82
206,Vodnyy,RU,53.41,63.51,99,45.57,92,2.42
207,Slave Lake,CA,-114.77,55.28,93,41,40,5.82
208,Les Cayes,HT,-73.75,18.19,92,84.99,44,14.05
209,Lingao,CN,109.69,19.91,96,76.98,0,7
210,Dawlatabad,AF,64.91,36.41,47,59.97,0,7
211,Hofn,IS,-15.21,64.25,94,46.02,0,31.61
212,Lagunas,PE,-75.68,-5.23,46,94.71,0,2.42
213,Saskylakh,RU,114.09,71.97,94,33.15,88,10.02
214,Borca,RO,25.79,47.18,74,38.46,88,6.67
215,Korla,CN,86.15,41.76,86,42.69,0,5.77
216,Ilebo,CD,20.59,-4.33,87,77.25,20,2.53
217,Pevek,RU,170.27,69.7,100,35.94,92,10.02
218,Kohat,PK,71.44,33.6,65,82.4,40,6.93
219,Burg,DE,11.86,52.27,71,45.84,0,4.88
220,Fairbanks,US,-147.72,64.84,93,46.04,90,4.7
221,Brigantine,US,-74.36,39.41,87,80.06,90,13.87
222,Araouane,ML,-3.53,18.9,24,96.69,0,5.21
223,Kudahuvadhoo,MV,72.89,2.67,100,83.64,44,16.06
224,Iqaluit,CA,-68.52,63.75,64,35.6,75,2.24
225,Cockburn Town,TC,-71.14,21.46,97,83.73,76,18.52
226,Tete,MZ,33.59,-16.16,23,96.8,20,9.17
227,Ketchikan,US,-131.65,55.34,93,55.94,90,9.17
228,Zeya,RU,127.27,53.74,92,35.58,0,2.19
229,Hennenman,ZA,27.03,-27.97,40,65.28,32,12.03
230,Dawei,MM,98.19,14.07,94,75.36,92,2.19
231,Chokurdakh,RU,147.9,70.62,93,31.35,88,8.79
232,Lodja,CD,23.6,-3.52,86,74.19,24,2.75
233,Inirida,CO,-67.92,3.87,59,91.56,20,2.75
234,Half Moon Bay,US,-122.43,37.46,93,66.02,90,3.36
235,Hithadhoo,MV,73.08,-0.6,100,84.45,80,14.5
236,Husavik,IS,-17.34,66.04,75,42.8,40,3.36
237,Jiujiang,CN,115.99,29.73,78,70.23,92,14.72
238,Bozoum,CF,16.38,6.31,77,75.09,8,5.55
239,Tsabong,BW,22.4,-26.02,10,87.87,92,12.48
240,Quelimane,MZ,36.89,-17.88,78,78.8,0,12.75
241,Ban Nahin,LA,104.21,18.24,91,76.53,92,2.19
242,Vyshkov,RU,31.69,52.48,75,46.4,0,13.42
243,Vicuna,CL,-70.71,-30.03,72,59,75,5.82
244,Escarcega,MX,-90.75,18.61,60,89.94,56,3.09
245,Carnarvon,AU,113.63,-24.87,94,66.36,0,20.31
246,Melilla,ES,-2.94,35.29,78,78.8,40,10.29
247,Synya,RU,58.04,65.37,91,46.92,92,2.75
248,Coihaique,CL,-72.07,-45.58,75,50,90,3.36
249,Nouadhibou,MR,-17.03,20.93,78,82.4,0,11.41
250,Castro,CL,-73.76,-42.48,70,50.34,76,8.68
251,Vestmanna,FO,-7.17,62.16,100,50,92,13.87
252,Lima,PE,-77.04,-12.06,68,69.51,0,2.98
253,Rocha,UY,-54.34,-34.48,51,69.69,20,13.38
254,Mitzic,GA,11.55,0.78,90,77.16,68,2.98
255,Talisay,PH,123.85,10.25,78,80.6,90,6.93
256,Talcahuano,CL,-73.12,-36.72,59,62.6,0,10.29
257,Kaliua,TZ,31.79,-5.06,32,76.89,32,4.32
258,Devils Lake,US,-98.87,48.11,62,51.8,1,11.41
259,Fiche,ET,38.74,9.77,41,57.99,12,7.34
260,Fonte Boa,BR,-66.09,-2.51,93,82.11,24,4.76
261,Pimentel,PE,-79.94,-6.84,29,66.2,40,9.17
262,Lorengau,PG,147.27,-2.02,100,82.11,32,6.22
263,Pokhara,NP,83.99,28.21,67,60.42,0,4.32
264,Kambia,SL,-12.92,9.13,96,80.76,44,7.11
265,Tilichiki,RU,166.1,60.47,96,39.72,92,4.21
266,Povenets,RU,34.83,62.85,93,40.35,0,10.8
267,Hambantota,LK,81.12,6.12,100,80.04,24,9.69
268,Cheremukhovo,RU,46.23,56.23,86,48.45,44,13.6
269,Zhezkazgan,KZ,67.71,47.8,50,53.6,0,11.18
270,Thohoyandou,ZA,30.46,-22.97,33,70.68,0,5.77
271,Dingle,IE,-10.27,52.14,96,57.18,80,24.34
272,Sitangkai,PH,119.39,4.66,100,79.68,44,9.69
273,Zhangye,CN,100.46,38.94,77,47.73,0,3.2
274,Rio Gallegos,AR,-69.22,-51.62,39,46.4,20,5.82
275,Merauke,ID,140.4,-8.49,92,74.91,0,17.29
276,San Cristobal,EC,-79.44,-1.02,93,71.22,48,3.42
277,Khandyga,RU,135.58,62.65,87,37.92,80,6.11
278,Tera,NE,0.75,14.01,37,92.19,12,10.02
279,Chicama,PE,-79.15,-7.84,77,66.2,75,10.29
280,Geraldton,CA,-86.95,49.72,93,42.8,90,6.93
281,Jiangyou,CN,104.73,31.78,91,62.04,76,2.75
282,Karlstad,SE,13.5,59.38,71,50,0,11.41
283,Fortuna,US,-124.16,40.6,45,64.94,1,4.7
284,Verkhnyaya Toyma,RU,45,62.24,98,46.38,92,6.33
285,Meulaboh,ID,96.13,4.14,100,78.96,24,0.96
286,San Patricio,MX,-104.7,19.22,70,86,75,3.65
287,Xihe,CN,105.29,34.02,97,51.51,92,3.09
288,Khonsa,IN,95.51,26.99,96,70.86,88,2.19
289,Jacareacanga,BR,-57.76,-6.22,70,84.2,40,4.7
290,Guerrero Negro,MX,-114.04,27.97,59,77.88,0,8.23
291,Puerto Leguizamo,CO,-74.78,-0.19,68,87.06,24,3.09
292,Henties Bay,NA,14.28,-22.12,93,57.18,0,11.7
293,Bedesa,ET,40.78,8.9,55,63.12,20,3.65
294,Yershichi,RU,32.75,53.67,75,45.39,48,13.71
295,Marawi,SD,31.82,18.48,19,89.85,0,7.23
296,Birjand,IR,59.22,32.86,59,64.4,20,13.87
297,Mahebourg,MU,57.7,-20.41,69,75.2,75,13.87
298,Bonfim,BR,-44.24,-20.33,42,87.42,0,4.54
299,Pangnirtung,CA,-65.72,66.15,80,35.6,75,14.99
300,Huarmey,PE,-78.15,-10.07,50,75.09,8,4.21
301,Xining,CN,101.77,36.62,100,46.74,92,2.98
302,Naushki,RU,106.11,50.39,83,39.72,56,3.31
303,Pangoa,PE,-73,-12.12,100,74.01,32,2.64
304,Ottumwa,US,-92.41,41.02,69,78.8,75,11.41
305,Ujiie,JP,139.97,36.68,100,64.4,75,8.05
306,Gorin,RU,136.66,51.2,76,31.35,0,2.86
307,Kuusamo,FI,29.19,65.96,86,41,90,8.05
308,Jasper,CA,-118.08,52.88,74,38.28,8,2.08
309,Bonthe,SL,-12.5,7.53,91,79.86,64,3.42
310,Valdivia,CL,-73.25,-39.81,66,53.6,75,6.93
311,Atambua,ID,124.89,-9.11,100,74.19,0,6.89
312,Steinbach,CA,-96.69,49.53,66,48.2,40,12.75
313,Leshukonskoye,RU,45.76,64.9,99,46.92,92,2.42
314,Grand-Santi,GF,-54.38,4.27,63,88.86,20,2.86
315,Mercedes,AR,-58.08,-29.18,100,68.34,92,10.8
316,Binga,CD,29.32,0.52,99,67.71,76,2.75
317,Mehamn,NO,27.85,71.03,94,41,0,11.41
318,Marsh Harbour,BS,-77.06,26.54,95,86.52,8,9.57
319,Teya,RU,92.63,60.37,98,40.98,92,7
320,Sunndalsora,NO,8.55,62.68,81,51.8,75,23.04
321,Constantine,DZ,6.61,36.36,53,75.2,20,9.17
322,Ancud,CL,-73.83,-41.87,64,51.15,68,7.45
323,Tual,ID,132.75,-5.67,99,80.22,0,14.72
324,Wakkanai,JP,141.67,45.41,100,60.96,12,7.45
325,Qaqortoq,GL,-46.03,60.72,35,41,20,11.41
326,George Town,KY,-81.37,19.29,79,87.8,40,13.87
327,Ejura,GH,-1.37,7.38,99,72.12,80,1.07
328,Nata,BW,26.19,-20.21,36,72.66,0,3.65
329,Lompoc,US,-120.46,34.64,93,62.06,90,3.2
330,San Borja,BO,-66.75,-14.86,50,91.83,24,4.65
331,Tibati,CM,12.63,6.47,97,66.81,88,4.21
332,Palapye,BW,27.12,-22.54,43,70.41,0,2.98
333,Ciawi,ID,108.44,-6.7,100,79.77,44,11.48
334,Sambava,MG,50.17,-14.27,100,74.46,68,16.51
335,Yulara,AU,130.99,-25.24,28,57.2,0,5.82
336,Kalmunai,LK,81.82,7.42,100,74.64,76,2.42
337,Sao Joao da Barra,BR,-41.05,-21.64,52,87.8,20,9.17
338,Pasni,PK,63.48,25.26,96,80.58,0,11.92
339,Vicente Guerrero,MX,-96.7,16.93,56,71.6,75,9.17
340,Deep River,CA,-77.49,46.1,93,57.2,90,12.75
341,Poum,NC,164.02,-20.23,100,71.67,76,13.94
342,Umba,RU,34.34,66.69,100,42.15,0,10.47
343,Jacksonville,US,-81.66,30.33,87,91.4,75,4.7
344,Nakapiripirit,UG,34.71,1.81,71,64.47,8,4.65
345,Belmonte,BR,-53.58,-26.84,97,71.58,76,1.97
346,Cayenne,GF,-52.33,4.94,66,89.6,75,5.82
347,Batagay-Alyta,RU,130.41,67.8,81,26.94,88,2.64
348,Cape Canaveral,US,-80.6,28.41,60,91.4,20,9.17
349,Aranos,NA,19.11,-24.14,13,85.71,80,12.59
350,Bogorodskoye,RU,140.44,52.37,100,35.13,0,3.42
351,Rundu,NA,19.77,-17.91,30,81.39,80,2.86
352,Kenai,US,-151.26,60.55,73,48.92,1,12.75
353,Svetlogorsk,RU,59.15,53.14,54,55.4,20,11.18
354,Prince Rupert,CA,-130.32,54.32,93,53.6,90,2.24
355,Tigil,RU,158.67,57.8,93,44.13,92,8.68
356,Chapais,CA,-74.86,49.78,93,48.2,90,18.34
357,Colesberg,ZA,25.1,-30.72,20,76.98,88,19.19
358,Namibe,AO,12.15,-15.19,99,65.82,0,10.8
359,Khudumelapye,BW,24.95,-23.91,28,71.67,0,6.67
360,Shikhany,RU,47.22,52.12,96,56.46,100,11.7
361,Rehlingen-Siersburg,DE,6.68,49.37,47,57.2,0,9.17
362,Hasaki,JP,140.83,35.73,100,64.4,75,11.41
363,Bibiani,GH,-2.31,6.45,70,83.37,32,5.32
364,Ilulissat,GL,-51.1,69.22,80,33.8,40,9.17
365,Naryan-Mar,RU,53.09,67.67,94,45.48,80,6.22
366,Konza,KE,37.13,-1.74,49,71.6,75,10.29
367,Pontes e Lacerda,BR,-59.33,-15.23,80,84.45,48,6.44
368,Te Anau,NZ,167.72,-45.41,89,34.95,88,8.68
369,Saint Augustine,US,-90.41,40.72,60,80.42,40,10.29
370,Tynda,RU,124.74,55.15,79,33.24,0,2.64
371,Moengo,SR,-54.4,5.62,100,80.31,32,2.64
372,Port Blair,IN,92.75,11.67,100,81.57,76,7.67
373,Liverpool,CA,-64.71,44.04,95,60.06,32,14.27
374,Bilma,NE,12.92,18.69,17,87.78,0,4.21
375,Hami,CN,93.51,42.84,42,58.17,0,13.27
376,Qarqin,AF,66.03,37.41,41,63.84,0,8.12
377,Namatanai,PG,152.44,-3.66,100,82.74,76,19.86
378,Ranong,TH,98.62,9.96,100,80.58,92,9.46
379,Ulaanbaatar,MN,106.92,47.92,80,41,40,2.98
380,Basco,PH,121.97,20.45,100,82.74,68,28.81
381,Abha,SA,42.5,18.22,22,77,40,16.11
382,Carupano,VE,-63.26,10.67,88,82.38,56,10.02
383,Skibbereen,IE,-9.27,51.55,82,55.4,40,16.11
384,Kurchum,KZ,83.65,48.57,88,46.74,0,11.81
385,Ipixuna,BR,-48.8,-1.76,70,86,75,8.05
386,Fort Wellington,GY,-57.6,6.4,93,84.72,56,6.44
387,Anastacio,BR,-55.81,-20.48,34,98.76,24,7.67
388,Dudinka,RU,86.18,69.41,87,29.1,8,3.2
389,Acajutla,SV,-89.83,13.59,66,88.32,12,2.98
390,Chak,PK,68.83,27.86,50,78.78,0,8.79
391,Aitape,PG,142.36,-3.15,99,78.96,12,2.98
392,La Union,ES,-0.88,37.62,73,82.4,40,10.29
393,Palestine,US,-95.63,31.76,75,83.84,40,5.82
394,Sinnamary,GF,-52.96,5.38,90,84.99,8,7.23
395,Carora,VE,-70.08,10.17,63,85.89,24,13.71
396,Gazojak,TM,61.4,41.19,45,61.59,0,9.13
397,Los Llanos de Aridane,ES,-17.92,28.66,73,77,20,6.93
398,Sapernoye,RU,29.95,60.72,68,43.59,8,7.45
399,Conde,BR,-37.61,-11.81,74,80.85,48,10.47
400,Sharan,AF,68.78,33.15,46,44.94,0,3.53
401,Novobirilyussy,RU,90.69,56.95,97,47.01,36,8.12
402,Santa Rosa de Viterbo,BR,-47.37,-21.49,20,98.6,20,8.05
403,Hit,IQ,42.83,33.64,18,82.92,0,9.8
404,Pacific Grove,US,-121.92,36.62,86,57.2,90,4.7
405,Ust-Kuyga,RU,135.55,70,94,29.82,80,8.46
406,Chingirlau,KZ,54.08,51.09,76,53.22,0,7.78
407,Launceston,AU,147.14,-41.43,86,41,90,2.3
408,Ponta do Sol,PT,-17.1,32.67,69,75.2,75,8.05
409,Imeni Poliny Osipenko,RU,136.49,52.42,81,30.99,0,2.98
410,Mount Gambier,AU,140.78,-37.83,83,38.46,0,2.98
411,Sananduva,BR,-51.81,-27.95,83,76.26,76,11.7
412,Adrar,DZ,-0.29,27.87,30,93.2,0,9.17
413,Linares,CL,-71.6,-35.85,65,60.06,68,2.19
414,Arlit,NE,7.39,18.74,12,94.08,36,5.77
415,Necochea,AR,-58.74,-38.55,70,66.45,68,11.14
416,Pundaguitan,PH,126.17,6.37,98,83.91,8,10.69
417,Ngunguru,NZ,174.5,-35.62,100,55.47,20,18.86
418,Chuguyevka,RU,133.87,44.17,89,40.62,24,2.19
419,Soe,ID,124.28,-9.86,93,62.67,24,1.86
420,Piraju,BR,-49.38,-23.19,43,89.58,0,8.79
421,Muros,ES,-9.06,42.77,53,73.4,0,8.05
422,Wladyslawowo,PL,18.4,54.79,52,46.4,0,6.93
423,Mundwa,IN,73.82,27.06,68,76.53,0,2.53
424,Yerbogachen,RU,108.01,61.28,84,45.66,92,2.53
425,Khoy,IR,44.95,38.55,82,56.64,44,4.65
426,College,US,-147.8,64.86,93,46.04,90,4.7
427,Ostersund,SE,14.64,63.18,50,51.8,40,16.11
428,Lakes Entrance,AU,147.99,-37.88,100,46.92,32,2.75
429,Marsaxlokk,MT,14.54,35.84,73,75.2,75,14.99
430,Lahij,YE,44.88,13.06,88,73.56,0,3.98
431,Rudovci,RS,20.41,44.38,50,55.4,0,5.82
432,Presidencia Roque Saenz Pena,AR,-60.44,-26.79,100,71.04,76,9.24
433,Kijang,ID,104.63,0.9,95,80.85,0,5.44
434,Penzance,GB,-5.53,50.12,71,59,20,6.93
435,Tarakan,ID,117.63,3.3,100,75,68,2.08
436,Novikovo,RU,37.89,51.15,86,45.21,12,8.23
437,Owase,JP,136.2,34.07,100,61.05,24,3.98
438,Pendleton,US,-118.79,45.67,40,62.96,1,4.21
439,Ust-Kulom,RU,53.69,61.69,98,46.65,92,8.23
440,Hokitika,NZ,170.96,-42.72,93,50.52,68,25.46
441,Sorland,NO,12.69,67.67,66,48.2,75,25.28
442,Toktogul,KG,72.95,41.87,78,29.19,0,1.86
443,Menongue,AO,17.68,-14.66,34,78.06,48,4.99
444,Sept-Iles,CA,-66.38,50.2,48,50,75,12.75
445,Hay River,CA,-115.79,60.82,62,44.6,75,6.93
446,Kiruna,SE,20.23,67.86,69,37.4,0,11.41
447,Berlevag,NO,29.09,70.86,64,39.2,0,17.22
448,Bolobo,CD,16.23,-2.17,78,79.59,0,2.19
449,Umm Kaddadah,SD,26.69,13.6,21,90.39,80,6.55
450,Port Hedland,AU,118.58,-20.31,83,69.8,0,6.93
451,Tres Picos,MX,-93.58,16.23,78,75.2,75,2.24
452,Trofors,NO,13.39,65.54,81,46.4,75,6.93
453,Greenlaw,GB,-2.46,55.71,76,57.2,75,28.86
454,Batagay,RU,134.64,67.65,91,30.54,92,2.98
455,Esperance,AU,121.89,-33.86,94,50.07,8,3.09
456,Taraz,KZ,71.39,42.89,75,60.8,0,8.95
457,Shouguang,CN,118.73,36.88,86,58.44,48,3.42
458,North Bend,US,-124.22,43.41,67,62.6,1,8.05
459,Vaasa,FI,21.62,63.1,66,50,0,9.17
460,Vuktyl,RU,57.31,63.86,98,52.23,88,8.68
461,Hengshui,CN,115.7,37.73,89,56.37,56,2.98
462,Egvekinot,RU,-179.17,66.32,96,32.79,88,2.42
463,Salawagan,PH,125.11,7.71,96,69.51,36,2.98
464,Eydhafushi,MV,73.07,5.1,100,83.82,68,13.04
465,Kieta,PG,155.63,-6.22,100,75.99,92,13.71
466,Maceio,BR,-35.74,-9.67,65,82.4,75,16.11
467,Antalaha,MG,50.28,-14.9,94,72.03,64,10.02
468,Klaksvik,FO,-6.59,62.23,100,50,88,13.87
469,Kaohsiung,TW,120.31,22.62,88,78.8,40,2.24
470,Magadan,RU,150.8,59.56,100,30.2,0,4.32
471,Kochubey,RU,46.54,44.39,95,69.06,0,11.48
472,Gladstone,AU,151.26,-23.84,97,61.95,68,8.01
473,Staryy Nadym,RU,72.68,65.61,93,52.77,36,7.78
474,Ahipara,NZ,173.16,-35.17,84,54.93,80,16.51
475,Berbera,SO,45.01,10.44,69,68.16,0,2.75
476,Hervey Bay,AU,152.85,-25.3,97,67.35,80,7.78
477,Trinidad,BO,-64.9,-14.83,55,91.4,40,9.17
478,Hof,NO,10.09,59.53,62,57.2,0,18.34
479,San Juan Bautista,PY,-57.15,-26.67,100,71.31,92,9.8
480,Billings,US,-108.5,45.79,65,51.08,40,9.17
481,Poso,ID,120.75,-1.4,100,77.88,24,6.67
482,Aberystwyth,GB,-4.08,52.41,83,54.3,0,12.03
483,Kirakira,SB,161.92,-10.46,100,75.54,92,12.82
484,Honningsvag,NO,25.97,70.98,100,41,0,6.93
485,Labuhan,ID,115.51,-2.54,84,70.68,8,2.3
486,Kot Samaba,PK,70.47,28.55,56,77.79,0,2.75
487,Oktyabrskiy,RU,37.97,55.61,75,46.4,20,11.18
488,Kaliyaganj,IN,88.33,25.64,97,75.63,88,2.75
489,Sola,VU,167.55,-13.88,100,77.97,92,19.98
490,Bud,NO,6.91,62.91,81,53.6,75,13.87
491,Jati,PK,68.27,24.35,76,77.88,0,10.69
492,Port-Cartier,CA,-66.88,50.03,53,50,75,12.75
493,Monreal,PH,123.66,12.64,91,83.46,0,19.08
494,Aykhal,RU,111.51,65.95,94,40.98,92,3.98
495,Baykit,RU,96.39,61.68,99,42.96,92,4.21
496,Kavieng,PG,150.8,-2.57,100,83.91,64,13.71
497,Lebanon,US,-72.25,43.64,86,51.98,90,6.93
498,Bathsheba,BB,-59.52,13.22,70,87.8,40,20.8
499,Llata,PE,-76.82,-9.55,50,57.72,44,4.99
500,Qinhuangdao,CN,119.59,39.94,88,44.58,0,2.19
501,Mrakovo,RU,56.62,52.72,62,59.61,0,12.03
502,Gorontalo,ID,123.06,0.54,74,77.34,0,4.76
503,Buala,SB,159.59,-8.15,100,77.79,80,7.45
504,Nisia Floresta,BR,-35.21,-6.09,55,86,40,17.22
505,Boyolangu,ID,111.9,-8.09,90,66.9,20,4.99
506,Altamira,MX,-97.93,22.41,70,86,40,11.41
507,Constitucion,MX,-104.67,23.99,68,69.8,40,4.32
508,Beloha,MG,45.06,-25.17,72,71.76,0,5.99
509,Xiangxiang,CN,112.52,27.73,75,70.05,44,9.46
510,Hammerfest,NO,23.68,70.66,100,41,75,14.99
511,Puerto Madryn,AR,-65.04,-42.77,54,58.62,0,13.82
512,Port Lincoln,AU,135.86,-34.72,100,54.48,80,15.73
513,Magdalena,PH,121.43,14.2,89,84.2,20,6.93
514,Amilly,FR,2.77,47.98,52,55.56,0,11.25
515,Carauari,BR,-66.9,-4.88,42,95.7,20,4.21
516,Piacabucu,BR,-36.43,-10.41,53,85.08,0,13.71
517,Guilin,CN,110.29,25.28,94,75.2,40,2.24
518,Tautira,PF,-149.15,-17.73,56,73.4,20,4.7
519,Willow Grove,US,-75.12,40.14,79,78.98,75,5.82
520,Lesogorsk,RU,99.51,56.05,96,44.49,24,4.99
521,Huntly,GB,-2.79,57.44,71,59,40,18.34
522,Muhos,FI,26,64.81,70,48.2,0,12.75
523,Road Town,VG,-64.62,18.42,70,89.6,40,10.29
524,Banjar,ID,108.54,-7.37,93,67.35,36,2.42
525,Beyneu,KZ,55.19,45.32,32,73.02,100,9.46
526,Thessalon,CA,-83.55,46.26,81,69.26,90,12.75
527,Pilar,PH,120.6,17.42,93,73.2,88,2.3
528,Pag,HR,15.06,44.45,100,57.2,0,4.7
529,Charyshskoye,RU,83.56,51.4,96,41.16,0,3.53
530,Maine-Soroa,NE,12.02,13.21,34,88.32,0,7.23
531,Bayangol,RU,103.47,50.7,92,38.82,92,2.75
532,Poyarkovo,RU,128.65,49.62,84,37.29,0,2.19
533,Pedernales,DO,-71.74,18.04,52,91.4,20,16.11
